[
  {
    "Station ID": 1611400,
    "Station Name": "Nawiliwili, HI",
    "First Year": 1955,
    "Last Year": 2015,
    "Year Range": 60,
    "% Complete": 97,
    "MSL Trends (mm/yr)": 1.41,
    "+/- 95% CI (mm/yr)": 0.45,
    "MSL Trend (ft/century)": 0.46,
    "+/- 95% CI (ft/century)": 0.15,
    "Latitude": 21.9544,
    "Longitude": -159.3561
  },
  {
    "Station ID": 1612340,
    "Station Name": "Honolulu, HI",
    "First Year": 1905,
    "Last Year": 2015,
    "Year Range": 110,
    "% Complete": 88,
    "MSL Trends (mm/yr)": 1.41,
    "+/- 95% CI (mm/yr)": 0.21,
    "MSL Trend (ft/century)": 0.46,
    "+/- 95% CI (ft/century)": 0.07,
    "Latitude": 21.3067,
    "Longitude": -157.867
  },
  {
    "Station ID": 1612480,
    "Station Name": "Mokuoloe, HI",
    "First Year": 1957,
    "Last Year": 2015,
    "Year Range": 58,
    "% Complete": 62,
    "MSL Trends (mm/yr)": 1.13,
    "+/- 95% CI (mm/yr)": 0.52,
    "MSL Trend (ft/century)": 0.37,
    "+/- 95% CI (ft/century)": 0.17,
    "Latitude": 21.4331,
    "Longitude": -157.79
  },
  {
    "Station ID": 1615680,
    "Station Name": "Kahului, HI",
    "First Year": 1947,
    "Last Year": 2015,
    "Year Range": 68,
    "% Complete": 82,
    "MSL Trends (mm/yr)": 2.04,
    "+/- 95% CI (mm/yr)": 0.42,
    "MSL Trend (ft/century)": 0.67,
    "+/- 95% CI (ft/century)": 0.14,
    "Latitude": 20.895,
    "Longitude": -156.4767
  },
  {
    "Station ID": 1617760,
    "Station Name": "Hilo, HI",
    "First Year": 1927,
    "Last Year": 2015,
    "Year Range": 88,
    "% Complete": 76,
    "MSL Trends (mm/yr)": 2.95,
    "+/- 95% CI (mm/yr)": 0.31,
    "MSL Trend (ft/century)": 0.97,
    "+/- 95% CI (ft/century)": 0.1,
    "Latitude": 19.7303,
    "Longitude": -155.0558
  },
  {
    "Station ID": 1619000,
    "Station Name": "Johnston Atoll",
    "First Year": 1947,
    "Last Year": 2003,
    "Year Range": 56,
    "% Complete": 93,
    "MSL Trends (mm/yr)": 0.75,
    "+/- 95% CI (mm/yr)": 0.56,
    "MSL Trend (ft/century)": 0.25,
    "+/- 95% CI (ft/century)": 0.18,
    "Latitude": 16.7383,
    "Longitude": -169.53
  },
  {
    "Station ID": 1619910,
    "Station Name": "Midway Atoll",
    "First Year": 1947,
    "Last Year": 2015,
    "Year Range": 68,
    "% Complete": 95,
    "MSL Trends (mm/yr)": 1.25,
    "+/- 95% CI (mm/yr)": 0.45,
    "MSL Trend (ft/century)": 0.41,
    "+/- 95% CI (ft/century)": 0.15,
    "Latitude": 28.2117,
    "Longitude": -177.36
  },
  {
    "Station ID": 1630000,
    "Station Name": "Apra Harbor, Guam",
    "First Year": 1993,
    "Last Year": 2015,
    "Year Range": 22,
    "% Complete": 95,
    "MSL Trends (mm/yr)": 4.55,
    "+/- 95% CI (mm/yr)": 4.68,
    "MSL Trend (ft/century)": 1.49,
    "+/- 95% CI (ft/century)": 1.54,
    "Latitude": 13.4387,
    "Longitude": 144.6539
  },
  {
    "Station ID": 1770000,
    "Station Name": "Pago Pago, American Samoa",
    "First Year": 1948,
    "Last Year": 2009,
    "Year Range": 61,
    "% Complete": 87,
    "MSL Trends (mm/yr)": 2.21,
    "+/- 95% CI (mm/yr)": 0.81,
    "MSL Trend (ft/century)": 0.72,
    "+/- 95% CI (ft/century)": 0.27,
    "Latitude": -14.28,
    "Longitude": -170.69
  },
  {
    "Station ID": 1820000,
    "Station Name": "Kwajalein",
    "First Year": 1946,
    "Last Year": 2015,
    "Year Range": 69,
    "% Complete": 96,
    "MSL Trends (mm/yr)": 2.2,
    "+/- 95% CI (mm/yr)": 0.82,
    "MSL Trend (ft/century)": 0.72,
    "+/- 95% CI (ft/century)": 0.27,
    "Latitude": 8.7316,
    "Longitude": 167.7362
  },
  {
    "Station ID": 1840000,
    "Station Name": "Chuuk",
    "First Year": 1947,
    "Last Year": 1995,
    "Year Range": 48,
    "% Complete": 91,
    "MSL Trends (mm/yr)": 0.6,
    "+/- 95% CI (mm/yr)": 1.78,
    "MSL Trend (ft/century)": 0.2,
    "+/- 95% CI (ft/century)": 0.58,
    "Latitude": 7.4467,
    "Longitude": 151.847
  },
  {
    "Station ID": 1890000,
    "Station Name": "Wake Island",
    "First Year": 1950,
    "Last Year": 2015,
    "Year Range": 65,
    "% Complete": 93,
    "MSL Trends (mm/yr)": 1.99,
    "+/- 95% CI (mm/yr)": 0.46,
    "MSL Trend (ft/century)": 0.65,
    "+/- 95% CI (ft/century)": 0.15,
    "Latitude": 19.29,
    "Longitude": 166.618
  },
  {
    "Station ID": 2695540,
    "Station Name": "Bermuda, Atlantic Ocean",
    "First Year": 1932,
    "Last Year": 2015,
    "Year Range": 83,
    "% Complete": 30,
    "MSL Trends (mm/yr)": 2.05,
    "+/- 95% CI (mm/yr)": 0.39,
    "MSL Trend (ft/century)": 0.67,
    "+/- 95% CI (ft/century)": 0.13,
    "Latitude": 32.3734,
    "Longitude": -64.7033
  },
  {
    "Station ID": 8410140,
    "Station Name": "Eastport, ME",
    "First Year": 1929,
    "Last Year": 2015,
    "Year Range": 86,
    "% Complete": 95,
    "MSL Trends (mm/yr)": 2.11,
    "+/- 95% CI (mm/yr)": 0.18,
    "MSL Trend (ft/century)": 0.69,
    "+/- 95% CI (ft/century)": 0.06,
    "Latitude": 44.9046,
    "Longitude": -66.9829
  },
  {
    "Station ID": 8411250,
    "Station Name": "Cutler, ME",
    "First Year": 1979,
    "Last Year": 2010,
    "Year Range": 31,
    "% Complete": 94,
    "MSL Trends (mm/yr)": 2.34,
    "+/- 95% CI (mm/yr)": 0.61,
    "MSL Trend (ft/century)": 0.77,
    "+/- 95% CI (ft/century)": 0.2,
    "Latitude": 44.6417,
    "Longitude": -67.2967
  },
  {
    "Station ID": 8413320,
    "Station Name": "Bar Harbor, ME",
    "First Year": 1947,
    "Last Year": 2015,
    "Year Range": 68,
    "% Complete": 91,
    "MSL Trends (mm/yr)": 2.18,
    "+/- 95% CI (mm/yr)": 0.22,
    "MSL Trend (ft/century)": 0.71,
    "+/- 95% CI (ft/century)": 0.07,
    "Latitude": 44.3917,
    "Longitude": -68.205
  },
  {
    "Station ID": 8418150,
    "Station Name": "Portland, ME",
    "First Year": 1912,
    "Last Year": 2015,
    "Year Range": 103,
    "% Complete": 99,
    "MSL Trends (mm/yr)": 1.87,
    "+/- 95% CI (mm/yr)": 0.15,
    "MSL Trend (ft/century)": 0.61,
    "+/- 95% CI (ft/century)": 0.05,
    "Latitude": 43.6567,
    "Longitude": -70.2467
  },
  {
    "Station ID": 8419870,
    "Station Name": "Seavey Island, ME",
    "First Year": 1926,
    "Last Year": 2001,
    "Year Range": 75,
    "% Complete": 74,
    "MSL Trends (mm/yr)": 1.76,
    "+/- 95% CI (mm/yr)": 0.3,
    "MSL Trend (ft/century)": 0.58,
    "+/- 95% CI (ft/century)": 0.1,
    "Latitude": 43.08,
    "Longitude": -70.7417
  },
  {
    "Station ID": 8443970,
    "Station Name": "Boston, MA",
    "First Year": 1921,
    "Last Year": 2015,
    "Year Range": 94,
    "% Complete": 99,
    "MSL Trends (mm/yr)": 2.79,
    "+/- 95% CI (mm/yr)": 0.16,
    "MSL Trend (ft/century)": 0.92,
    "+/- 95% CI (ft/century)": 0.05,
    "Latitude": 42.3548,
    "Longitude": -71.0534
  },
  {
    "Station ID": 8447930,
    "Station Name": "Woods Hole, MA",
    "First Year": 1932,
    "Last Year": 2015,
    "Year Range": 83,
    "% Complete": 95,
    "MSL Trends (mm/yr)": 2.81,
    "+/- 95% CI (mm/yr)": 0.18,
    "MSL Trend (ft/century)": 0.92,
    "+/- 95% CI (ft/century)": 0.06,
    "Latitude": 41.5233,
    "Longitude": -70.6717
  },
  {
    "Station ID": 8449130,
    "Station Name": "Nantucket Island, MA",
    "First Year": 1965,
    "Last Year": 2015,
    "Year Range": 50,
    "% Complete": 96,
    "MSL Trends (mm/yr)": 3.52,
    "+/- 95% CI (mm/yr)": 0.38,
    "MSL Trend (ft/century)": 1.15,
    "+/- 95% CI (ft/century)": 0.13,
    "Latitude": 41.285,
    "Longitude": -70.0967
  },
  {
    "Station ID": 8452660,
    "Station Name": "Newport, RI",
    "First Year": 1930,
    "Last Year": 2015,
    "Year Range": 85,
    "% Complete": 87,
    "MSL Trends (mm/yr)": 2.72,
    "+/- 95% CI (mm/yr)": 0.17,
    "MSL Trend (ft/century)": 0.89,
    "+/- 95% CI (ft/century)": 0.05,
    "Latitude": 41.505,
    "Longitude": -71.3267
  },
  {
    "Station ID": 8454000,
    "Station Name": "Providence, RI",
    "First Year": 1938,
    "Last Year": 2015,
    "Year Range": 77,
    "% Complete": 87,
    "MSL Trends (mm/yr)": 2.22,
    "+/- 95% CI (mm/yr)": 0.25,
    "MSL Trend (ft/century)": 0.73,
    "+/- 95% CI (ft/century)": 0.08,
    "Latitude": 41.8071,
    "Longitude": -71.4012
  },
  {
    "Station ID": 8461490,
    "Station Name": "New London, CT",
    "First Year": 1938,
    "Last Year": 2015,
    "Year Range": 77,
    "% Complete": 97,
    "MSL Trends (mm/yr)": 2.55,
    "+/- 95% CI (mm/yr)": 0.23,
    "MSL Trend (ft/century)": 0.84,
    "+/- 95% CI (ft/century)": 0.07,
    "Latitude": 41.3614,
    "Longitude": -72.09
  },
  {
    "Station ID": 8467150,
    "Station Name": "Bridgeport, CT",
    "First Year": 1964,
    "Last Year": 2015,
    "Year Range": 51,
    "% Complete": 97,
    "MSL Trends (mm/yr)": 2.81,
    "+/- 95% CI (mm/yr)": 0.45,
    "MSL Trend (ft/century)": 0.92,
    "+/- 95% CI (ft/century)": 0.15,
    "Latitude": 41.1733,
    "Longitude": -73.1817
  },
  {
    "Station ID": 8510560,
    "Station Name": "Montauk, NY",
    "First Year": 1947,
    "Last Year": 2015,
    "Year Range": 68,
    "% Complete": 93,
    "MSL Trends (mm/yr)": 3.21,
    "+/- 95% CI (mm/yr)": 0.28,
    "MSL Trend (ft/century)": 1.05,
    "+/- 95% CI (ft/century)": 0.09,
    "Latitude": 41.0483,
    "Longitude": -71.96
  },
  {
    "Station ID": 8514560,
    "Station Name": "Port Jefferson, NY",
    "First Year": 1957,
    "Last Year": 1992,
    "Year Range": 35,
    "% Complete": 98,
    "MSL Trends (mm/yr)": 2.44,
    "+/- 95% CI (mm/yr)": 0.76,
    "MSL Trend (ft/century)": 0.8,
    "+/- 95% CI (ft/century)": 0.25,
    "Latitude": 40.95,
    "Longitude": -73.0767
  },
  {
    "Station ID": 8516945,
    "Station Name": "Kings Point, NY",
    "First Year": 1931,
    "Last Year": 2015,
    "Year Range": 84,
    "% Complete": 20,
    "MSL Trends (mm/yr)": 2.5,
    "+/- 95% CI (mm/yr)": 0.21,
    "MSL Trend (ft/century)": 0.82,
    "+/- 95% CI (ft/century)": 0.07,
    "Latitude": 40.8103,
    "Longitude": -73.7649
  },
  {
    "Station ID": 8518750,
    "Station Name": "The Battery, NY",
    "First Year": 1856,
    "Last Year": 2015,
    "Year Range": 159,
    "% Complete": 90,
    "MSL Trends (mm/yr)": 2.84,
    "+/- 95% CI (mm/yr)": 0.09,
    "MSL Trend (ft/century)": 0.93,
    "+/- 95% CI (ft/century)": 0.03,
    "Latitude": 40.7006,
    "Longitude": -74.0142
  },
  {
    "Station ID": 8519483,
    "Station Name": "Bergen Point, NY",
    "First Year": 1981,
    "Last Year": 2015,
    "Year Range": 34,
    "% Complete": 94,
    "MSL Trends (mm/yr)": 4.35,
    "+/- 95% CI (mm/yr)": 0.9,
    "MSL Trend (ft/century)": 1.43,
    "+/- 95% CI (ft/century)": 0.3,
    "Latitude": 40.6367,
    "Longitude": -74.1417
  },
  {
    "Station ID": 8531680,
    "Station Name": "Sandy Hook, NJ",
    "First Year": 1932,
    "Last Year": 2015,
    "Year Range": 83,
    "% Complete": 99,
    "MSL Trends (mm/yr)": 4.05,
    "+/- 95% CI (mm/yr)": 0.22,
    "MSL Trend (ft/century)": 1.33,
    "+/- 95% CI (ft/century)": 0.07,
    "Latitude": 40.4669,
    "Longitude": -74.0094
  },
  {
    "Station ID": 8534720,
    "Station Name": "Atlantic City, NJ",
    "First Year": 1911,
    "Last Year": 2015,
    "Year Range": 104,
    "% Complete": 91,
    "MSL Trends (mm/yr)": 4.07,
    "+/- 95% CI (mm/yr)": 0.16,
    "MSL Trend (ft/century)": 1.33,
    "+/- 95% CI (ft/century)": 0.05,
    "Latitude": 39.355,
    "Longitude": -74.4183
  },
  {
    "Station ID": 8536110,
    "Station Name": "Cape May, NJ",
    "First Year": 1965,
    "Last Year": 2015,
    "Year Range": 50,
    "% Complete": 91,
    "MSL Trends (mm/yr)": 4.54,
    "+/- 95% CI (mm/yr)": 0.55,
    "MSL Trend (ft/century)": 1.49,
    "+/- 95% CI (ft/century)": 0.18,
    "Latitude": 38.9683,
    "Longitude": -74.96
  },
  {
    "Station ID": 8545240,
    "Station Name": "Philadelphia, PA",
    "First Year": 1900,
    "Last Year": 2015,
    "Year Range": 115,
    "% Complete": 22,
    "MSL Trends (mm/yr)": 2.93,
    "+/- 95% CI (mm/yr)": 0.19,
    "MSL Trend (ft/century)": 0.96,
    "+/- 95% CI (ft/century)": 0.06,
    "Latitude": 39.9333,
    "Longitude": -75.1417
  },
  {
    "Station ID": 8551910,
    "Station Name": "Reedy Point, DE",
    "First Year": 1956,
    "Last Year": 2015,
    "Year Range": 59,
    "% Complete": 60,
    "MSL Trends (mm/yr)": 3.54,
    "+/- 95% CI (mm/yr)": 0.51,
    "MSL Trend (ft/century)": 1.16,
    "+/- 95% CI (ft/century)": 0.17,
    "Latitude": 39.5583,
    "Longitude": -75.5733
  },
  {
    "Station ID": 8557380,
    "Station Name": "Lewes, DE",
    "First Year": 1919,
    "Last Year": 2015,
    "Year Range": 96,
    "% Complete": 62,
    "MSL Trends (mm/yr)": 3.4,
    "+/- 95% CI (mm/yr)": 0.24,
    "MSL Trend (ft/century)": 1.11,
    "+/- 95% CI (ft/century)": 0.08,
    "Latitude": 38.7817,
    "Longitude": -75.12
  },
  {
    "Station ID": 8570283,
    "Station Name": "Ocean City Inlet, MD",
    "First Year": 1975,
    "Last Year": 2015,
    "Year Range": 40,
    "% Complete": 35,
    "MSL Trends (mm/yr)": 5.6,
    "+/- 95% CI (mm/yr)": 0.97,
    "MSL Trend (ft/century)": 1.84,
    "+/- 95% CI (ft/century)": 0.32,
    "Latitude": 38.3283,
    "Longitude": -75.0917
  },
  {
    "Station ID": 8571892,
    "Station Name": "Cambridge, MD",
    "First Year": 1943,
    "Last Year": 2015,
    "Year Range": 72,
    "% Complete": 60,
    "MSL Trends (mm/yr)": 3.69,
    "+/- 95% CI (mm/yr)": 0.33,
    "MSL Trend (ft/century)": 1.21,
    "+/- 95% CI (ft/century)": 0.11,
    "Latitude": 38.5733,
    "Longitude": -76.0683
  },
  {
    "Station ID": 8573364,
    "Station Name": "Tolchester Beach, MD",
    "First Year": 1986,
    "Last Year": 2014,
    "Year Range": 28,
    "% Complete": 75,
    "MSL Trends (mm/yr)": 4.25,
    "+/- 95% CI (mm/yr)": 1.51,
    "MSL Trend (ft/century)": 1.4,
    "+/- 95% CI (ft/century)": 0.5,
    "Latitude": 39.2133,
    "Longitude": -76.245
  },
  {
    "Station ID": 8573927,
    "Station Name": "Chesapeake City, MD",
    "First Year": 1972,
    "Last Year": 2015,
    "Year Range": 43,
    "% Complete": 53,
    "MSL Trends (mm/yr)": 3.81,
    "+/- 95% CI (mm/yr)": 0.77,
    "MSL Trend (ft/century)": 1.25,
    "+/- 95% CI (ft/century)": 0.25,
    "Latitude": 39.5267,
    "Longitude": -75.81
  },
  {
    "Station ID": 8574680,
    "Station Name": "Baltimore, MD",
    "First Year": 1902,
    "Last Year": 2015,
    "Year Range": 113,
    "% Complete": 100,
    "MSL Trends (mm/yr)": 3.14,
    "+/- 95% CI (mm/yr)": 0.13,
    "MSL Trend (ft/century)": 1.03,
    "+/- 95% CI (ft/century)": 0.04,
    "Latitude": 39.2667,
    "Longitude": -76.5783
  },
  {
    "Station ID": 8575512,
    "Station Name": "Annapolis, MD",
    "First Year": 1928,
    "Last Year": 2015,
    "Year Range": 87,
    "% Complete": 97,
    "MSL Trends (mm/yr)": 3.53,
    "+/- 95% CI (mm/yr)": 0.21,
    "MSL Trend (ft/century)": 1.16,
    "+/- 95% CI (ft/century)": 0.07,
    "Latitude": 38.9833,
    "Longitude": -76.4816
  },
  {
    "Station ID": 8577330,
    "Station Name": "Solomons Island, MD",
    "First Year": 1937,
    "Last Year": 2015,
    "Year Range": 78,
    "% Complete": 66,
    "MSL Trends (mm/yr)": 3.74,
    "+/- 95% CI (mm/yr)": 0.25,
    "MSL Trend (ft/century)": 1.23,
    "+/- 95% CI (ft/century)": 0.08,
    "Latitude": 38.3167,
    "Longitude": -76.4517
  },
  {
    "Station ID": 8594900,
    "Station Name": "Washington, DC",
    "First Year": 1924,
    "Last Year": 2015,
    "Year Range": 91,
    "% Complete": 90,
    "MSL Trends (mm/yr)": 3.22,
    "+/- 95% CI (mm/yr)": 0.29,
    "MSL Trend (ft/century)": 1.06,
    "+/- 95% CI (ft/century)": 0.09,
    "Latitude": 38.8733,
    "Longitude": -77.0217
  },
  {
    "Station ID": 8631044,
    "Station Name": "Wachapreague, VA",
    "First Year": 1978,
    "Last Year": 2015,
    "Year Range": 37,
    "% Complete": 73,
    "MSL Trends (mm/yr)": 5.37,
    "+/- 95% CI (mm/yr)": 0.86,
    "MSL Trend (ft/century)": 1.76,
    "+/- 95% CI (ft/century)": 0.28,
    "Latitude": 37.6078,
    "Longitude": -75.6858
  },
  {
    "Station ID": 8632200,
    "Station Name": "Kiptopeke, VA",
    "First Year": 1951,
    "Last Year": 2015,
    "Year Range": 64,
    "% Complete": 99,
    "MSL Trends (mm/yr)": 3.58,
    "+/- 95% CI (mm/yr)": 0.34,
    "MSL Trend (ft/century)": 1.17,
    "+/- 95% CI (ft/century)": 0.11,
    "Latitude": 37.1652,
    "Longitude": -75.9884
  },
  {
    "Station ID": 8635150,
    "Station Name": "Colonial Beach, VA",
    "First Year": 1972,
    "Last Year": 2010,
    "Year Range": 38,
    "% Complete": 88,
    "MSL Trends (mm/yr)": 4.89,
    "+/- 95% CI (mm/yr)": 0.97,
    "MSL Trend (ft/century)": 1.6,
    "+/- 95% CI (ft/century)": 0.32,
    "Latitude": 38.2517,
    "Longitude": -76.96
  },
  {
    "Station ID": 8635750,
    "Station Name": "Lewisetta, VA",
    "First Year": 1974,
    "Last Year": 2015,
    "Year Range": 41,
    "% Complete": 99,
    "MSL Trends (mm/yr)": 5.42,
    "+/- 95% CI (mm/yr)": 0.71,
    "MSL Trend (ft/century)": 1.78,
    "+/- 95% CI (ft/century)": 0.23,
    "Latitude": 37.9961,
    "Longitude": -76.4644
  },
  {
    "Station ID": 8637624,
    "Station Name": "Gloucester Point, VA",
    "First Year": 1950,
    "Last Year": 2003,
    "Year Range": 53,
    "% Complete": 97,
    "MSL Trends (mm/yr)": 3.81,
    "+/- 95% CI (mm/yr)": 0.47,
    "MSL Trend (ft/century)": 1.25,
    "+/- 95% CI (ft/century)": 0.15,
    "Latitude": 37.2467,
    "Longitude": -76.5
  },
  {
    "Station ID": 8638610,
    "Station Name": "Sewells Point, VA",
    "First Year": 1927,
    "Last Year": 2015,
    "Year Range": 88,
    "% Complete": 99,
    "MSL Trends (mm/yr)": 4.59,
    "+/- 95% CI (mm/yr)": 0.23,
    "MSL Trend (ft/century)": 1.51,
    "+/- 95% CI (ft/century)": 0.08,
    "Latitude": 36.9467,
    "Longitude": -76.33
  },
  {
    "Station ID": 8638660,
    "Station Name": "Portsmouth, VA",
    "First Year": 1935,
    "Last Year": 1987,
    "Year Range": 52,
    "% Complete": 100,
    "MSL Trends (mm/yr)": 3.76,
    "+/- 95% CI (mm/yr)": 0.45,
    "MSL Trend (ft/century)": 1.23,
    "+/- 95% CI (ft/century)": 0.15,
    "Latitude": 36.8217,
    "Longitude": -76.2933
  },
  {
    "Station ID": 8638863,
    "Station Name": "Chesapeake Bay Bridge Tunnel, VA",
    "First Year": 1975,
    "Last Year": 2015,
    "Year Range": 40,
    "% Complete": 99,
    "MSL Trends (mm/yr)": 5.93,
    "+/- 95% CI (mm/yr)": 0.77,
    "MSL Trend (ft/century)": 1.94,
    "+/- 95% CI (ft/century)": 0.25,
    "Latitude": 36.9667,
    "Longitude": -76.1133
  },
  {
    "Station ID": 8651370,
    "Station Name": "Duck, NC",
    "First Year": 1978,
    "Last Year": 2015,
    "Year Range": 37,
    "% Complete": 98,
    "MSL Trends (mm/yr)": 4.48,
    "+/- 95% CI (mm/yr)": 0.78,
    "MSL Trend (ft/century)": 1.47,
    "+/- 95% CI (ft/century)": 0.26,
    "Latitude": 36.1833,
    "Longitude": -75.7467
  },
  {
    "Station ID": 8652587,
    "Station Name": "Oregon Inlet Marina, NC",
    "First Year": 1977,
    "Last Year": 2015,
    "Year Range": 38,
    "% Complete": 59,
    "MSL Trends (mm/yr)": 3.84,
    "+/- 95% CI (mm/yr)": 1.23,
    "MSL Trend (ft/century)": 1.26,
    "+/- 95% CI (ft/century)": 0.4,
    "Latitude": 35.795,
    "Longitude": -75.5483
  },
  {
    "Station ID": 8656483,
    "Station Name": "Beaufort, NC",
    "First Year": 1953,
    "Last Year": 2015,
    "Year Range": 62,
    "% Complete": 71,
    "MSL Trends (mm/yr)": 2.89,
    "+/- 95% CI (mm/yr)": 0.36,
    "MSL Trend (ft/century)": 0.95,
    "+/- 95% CI (ft/century)": 0.12,
    "Latitude": 34.72,
    "Longitude": -76.67
  },
  {
    "Station ID": 8658120,
    "Station Name": "Wilmington, NC",
    "First Year": 1935,
    "Last Year": 2015,
    "Year Range": 80,
    "% Complete": 97,
    "MSL Trends (mm/yr)": 2.19,
    "+/- 95% CI (mm/yr)": 0.35,
    "MSL Trend (ft/century)": 0.72,
    "+/- 95% CI (ft/century)": 0.11,
    "Latitude": 34.2267,
    "Longitude": -77.9533
  },
  {
    "Station ID": 8659084,
    "Station Name": "Southport, NC",
    "First Year": 1933,
    "Last Year": 2008,
    "Year Range": 75,
    "% Complete": 16,
    "MSL Trends (mm/yr)": 2,
    "+/- 95% CI (mm/yr)": 0.41,
    "MSL Trend (ft/century)": 0.66,
    "+/- 95% CI (ft/century)": 0.14,
    "Latitude": 33.915,
    "Longitude": -78.0183
  },
  {
    "Station ID": 8661070,
    "Station Name": "Springmaid Pier, SC",
    "First Year": 1957,
    "Last Year": 2015,
    "Year Range": 58,
    "% Complete": 64,
    "MSL Trends (mm/yr)": 3.9,
    "+/- 95% CI (mm/yr)": 0.58,
    "MSL Trend (ft/century)": 1.28,
    "+/- 95% CI (ft/century)": 0.19,
    "Latitude": 33.655,
    "Longitude": -78.9183
  },
  {
    "Station ID": 8665530,
    "Station Name": "Charleston, SC",
    "First Year": 1921,
    "Last Year": 2015,
    "Year Range": 94,
    "% Complete": 99,
    "MSL Trends (mm/yr)": 3.21,
    "+/- 95% CI (mm/yr)": 0.22,
    "MSL Trend (ft/century)": 1.05,
    "+/- 95% CI (ft/century)": 0.07,
    "Latitude": 32.7817,
    "Longitude": -79.925
  },
  {
    "Station ID": 8670870,
    "Station Name": "Fort Pulaski, GA",
    "First Year": 1935,
    "Last Year": 2015,
    "Year Range": 80,
    "% Complete": 97,
    "MSL Trends (mm/yr)": 3.17,
    "+/- 95% CI (mm/yr)": 0.28,
    "MSL Trend (ft/century)": 1.04,
    "+/- 95% CI (ft/century)": 0.09,
    "Latitude": 32.0333,
    "Longitude": -80.9017
  },
  {
    "Station ID": 8720030,
    "Station Name": "Fernandina Beach, FL",
    "First Year": 1897,
    "Last Year": 2015,
    "Year Range": 118,
    "% Complete": 78,
    "MSL Trends (mm/yr)": 2.08,
    "+/- 95% CI (mm/yr)": 0.18,
    "MSL Trend (ft/century)": 0.68,
    "+/- 95% CI (ft/century)": 0.06,
    "Latitude": 30.6717,
    "Longitude": -81.465
  },
  {
    "Station ID": 8720218,
    "Station Name": "Mayport, FL",
    "First Year": 1928,
    "Last Year": 2015,
    "Year Range": 87,
    "% Complete": 17,
    "MSL Trends (mm/yr)": 2.55,
    "+/- 95% CI (mm/yr)": 0.27,
    "MSL Trend (ft/century)": 0.84,
    "+/- 95% CI (ft/century)": 0.09,
    "Latitude": 30.3967,
    "Longitude": -81.43
  },
  {
    "Station ID": 8721120,
    "Station Name": "Daytona Beach Shores, FL",
    "First Year": 1925,
    "Last Year": 1983,
    "Year Range": 58,
    "% Complete": 11,
    "MSL Trends (mm/yr)": 2.32,
    "+/- 95% CI (mm/yr)": 0.63,
    "MSL Trend (ft/century)": 0.76,
    "+/- 95% CI (ft/century)": 0.21,
    "Latitude": 29.1467,
    "Longitude": -80.9633
  },
  {
    "Station ID": 8722670,
    "Station Name": "Lake Worth Pier, FL",
    "First Year": 1970,
    "Last Year": 2015,
    "Year Range": 45,
    "% Complete": 41,
    "MSL Trends (mm/yr)": 3.56,
    "+/- 95% CI (mm/yr)": 0.66,
    "MSL Trend (ft/century)": 1.17,
    "+/- 95% CI (ft/century)": 0.22,
    "Latitude": 26.6117,
    "Longitude": -80.0333
  },
  {
    "Station ID": 8723170,
    "Station Name": "Miami Beach, FL",
    "First Year": 1931,
    "Last Year": 1981,
    "Year Range": 50,
    "% Complete": 93,
    "MSL Trends (mm/yr)": 2.39,
    "+/- 95% CI (mm/yr)": 0.43,
    "MSL Trend (ft/century)": 0.78,
    "+/- 95% CI (ft/century)": 0.14,
    "Latitude": 25.7683,
    "Longitude": -80.1317
  },
  {
    "Station ID": 8723970,
    "Station Name": "Vaca Key, FL",
    "First Year": 1971,
    "Last Year": 2015,
    "Year Range": 44,
    "% Complete": 91,
    "MSL Trends (mm/yr)": 3.53,
    "+/- 95% CI (mm/yr)": 0.48,
    "MSL Trend (ft/century)": 1.16,
    "+/- 95% CI (ft/century)": 0.16,
    "Latitude": 24.7117,
    "Longitude": -81.105
  },
  {
    "Station ID": 8724580,
    "Station Name": "Key West, FL",
    "First Year": 1913,
    "Last Year": 2015,
    "Year Range": 102,
    "% Complete": 93,
    "MSL Trends (mm/yr)": 2.37,
    "+/- 95% CI (mm/yr)": 0.15,
    "MSL Trend (ft/century)": 0.78,
    "+/- 95% CI (ft/century)": 0.05,
    "Latitude": 24.5557,
    "Longitude": -81.8079
  },
  {
    "Station ID": 8725110,
    "Station Name": "Naples, FL",
    "First Year": 1965,
    "Last Year": 2015,
    "Year Range": 50,
    "% Complete": 98,
    "MSL Trends (mm/yr)": 2.65,
    "+/- 95% CI (mm/yr)": 0.47,
    "MSL Trend (ft/century)": 0.87,
    "+/- 95% CI (ft/century)": 0.16,
    "Latitude": 26.1317,
    "Longitude": -81.8075
  },
  {
    "Station ID": 8725520,
    "Station Name": "Fort Myers, FL",
    "First Year": 1965,
    "Last Year": 2015,
    "Year Range": 50,
    "% Complete": 95,
    "MSL Trends (mm/yr)": 2.85,
    "+/- 95% CI (mm/yr)": 0.49,
    "MSL Trend (ft/century)": 0.93,
    "+/- 95% CI (ft/century)": 0.16,
    "Latitude": 26.6477,
    "Longitude": -81.8712
  },
  {
    "Station ID": 8726520,
    "Station Name": "St. Petersburg, FL",
    "First Year": 1947,
    "Last Year": 2015,
    "Year Range": 68,
    "% Complete": 100,
    "MSL Trends (mm/yr)": 2.66,
    "+/- 95% CI (mm/yr)": 0.25,
    "MSL Trend (ft/century)": 0.87,
    "+/- 95% CI (ft/century)": 0.08,
    "Latitude": 27.7606,
    "Longitude": -82.6269
  },
  {
    "Station ID": 8726724,
    "Station Name": "Clearwater Beach, FL",
    "First Year": 1973,
    "Last Year": 2015,
    "Year Range": 42,
    "% Complete": 89,
    "MSL Trends (mm/yr)": 3.37,
    "+/- 95% CI (mm/yr)": 0.62,
    "MSL Trend (ft/century)": 1.11,
    "+/- 95% CI (ft/century)": 0.2,
    "Latitude": 27.9783,
    "Longitude": -82.8317
  },
  {
    "Station ID": 8727520,
    "Station Name": "Cedar Key, FL",
    "First Year": 1914,
    "Last Year": 2015,
    "Year Range": 101,
    "% Complete": 84,
    "MSL Trends (mm/yr)": 1.97,
    "+/- 95% CI (mm/yr)": 0.18,
    "MSL Trend (ft/century)": 0.65,
    "+/- 95% CI (ft/century)": 0.06,
    "Latitude": 29.135,
    "Longitude": -83.0317
  },
  {
    "Station ID": 8728690,
    "Station Name": "Apalachicola, FL",
    "First Year": 1967,
    "Last Year": 2015,
    "Year Range": 48,
    "% Complete": 95,
    "MSL Trends (mm/yr)": 1.96,
    "+/- 95% CI (mm/yr)": 0.66,
    "MSL Trend (ft/century)": 0.64,
    "+/- 95% CI (ft/century)": 0.22,
    "Latitude": 29.7267,
    "Longitude": -84.9817
  },
  {
    "Station ID": 8729108,
    "Station Name": "Panama City, FL",
    "First Year": 1973,
    "Last Year": 2015,
    "Year Range": 42,
    "% Complete": 97,
    "MSL Trends (mm/yr)": 1.92,
    "+/- 95% CI (mm/yr)": 0.64,
    "MSL Trend (ft/century)": 0.63,
    "+/- 95% CI (ft/century)": 0.21,
    "Latitude": 30.1523,
    "Longitude": -85.6669
  },
  {
    "Station ID": 8729840,
    "Station Name": "Pensacola, FL",
    "First Year": 1923,
    "Last Year": 2015,
    "Year Range": 92,
    "% Complete": 98,
    "MSL Trends (mm/yr)": 2.25,
    "+/- 95% CI (mm/yr)": 0.23,
    "MSL Trend (ft/century)": 0.74,
    "+/- 95% CI (ft/century)": 0.07,
    "Latitude": 30.4044,
    "Longitude": -87.2112
  },
  {
    "Station ID": 8735180,
    "Station Name": "Dauphin Island, AL",
    "First Year": 1966,
    "Last Year": 2015,
    "Year Range": 49,
    "% Complete": 84,
    "MSL Trends (mm/yr)": 3.3,
    "+/- 95% CI (mm/yr)": 0.61,
    "MSL Trend (ft/century)": 1.08,
    "+/- 95% CI (ft/century)": 0.2,
    "Latitude": 30.25,
    "Longitude": -88.075
  },
  {
    "Station ID": 8737048,
    "Station Name": "Mobile State Docks, AL",
    "First Year": 1980,
    "Last Year": 2015,
    "Year Range": 35,
    "% Complete": 29,
    "MSL Trends (mm/yr)": 3.19,
    "+/- 95% CI (mm/yr)": 1.55,
    "MSL Trend (ft/century)": 1.05,
    "+/- 95% CI (ft/century)": 0.51,
    "Latitude": 30.7083,
    "Longitude": -88.0433
  },
  {
    "Station ID": 8747437,
    "Station Name": "Bay Waveland, MS",
    "First Year": 1978,
    "Last Year": 2015,
    "Year Range": 37,
    "% Complete": 67,
    "MSL Trends (mm/yr)": 4.1,
    "+/- 95% CI (mm/yr)": 0.92,
    "MSL Trend (ft/century)": 1.34,
    "+/- 95% CI (ft/century)": 0.3,
    "Latitude": 30.3264,
    "Longitude": -89.3258
  },
  {
    "Station ID": 8761724,
    "Station Name": "Grand Isle, LA",
    "First Year": 1947,
    "Last Year": 2015,
    "Year Range": 68,
    "% Complete": 54,
    "MSL Trends (mm/yr)": 9.05,
    "+/- 95% CI (mm/yr)": 0.46,
    "MSL Trend (ft/century)": 2.97,
    "+/- 95% CI (ft/century)": 0.15,
    "Latitude": 29.2633,
    "Longitude": -89.9567
  },
  {
    "Station ID": 8761927,
    "Station Name": "New Canal, LA",
    "First Year": 1982,
    "Last Year": 2015,
    "Year Range": 33,
    "% Complete": 59,
    "MSL Trends (mm/yr)": 4.71,
    "+/- 95% CI (mm/yr)": 1.35,
    "MSL Trend (ft/century)": 1.54,
    "+/- 95% CI (ft/century)": 0.44,
    "Latitude": 30.0272,
    "Longitude": -90.1134
  },
  {
    "Station ID": 8764311,
    "Station Name": "Eugene Island, LA",
    "First Year": 1939,
    "Last Year": 1974,
    "Year Range": 35,
    "% Complete": 51,
    "MSL Trends (mm/yr)": 9.65,
    "+/- 95% CI (mm/yr)": 1.24,
    "MSL Trend (ft/century)": 3.17,
    "+/- 95% CI (ft/century)": 0.41,
    "Latitude": 29.3717,
    "Longitude": -91.385
  },
  {
    "Station ID": 8770570,
    "Station Name": "Sabine Pass, TX",
    "First Year": 1958,
    "Last Year": 2015,
    "Year Range": 57,
    "% Complete": 54,
    "MSL Trends (mm/yr)": 5.54,
    "+/- 95% CI (mm/yr)": 0.79,
    "MSL Trend (ft/century)": 1.82,
    "+/- 95% CI (ft/century)": 0.26,
    "Latitude": 29.7284,
    "Longitude": -93.8701
  },
  {
    "Station ID": 8771450,
    "Station Name": "Galveston Pier 21, TX",
    "First Year": 1908,
    "Last Year": 2015,
    "Year Range": 107,
    "% Complete": 98,
    "MSL Trends (mm/yr)": 6.37,
    "+/- 95% CI (mm/yr)": 0.24,
    "MSL Trend (ft/century)": 2.09,
    "+/- 95% CI (ft/century)": 0.08,
    "Latitude": 29.31,
    "Longitude": -94.7933
  },
  {
    "Station ID": 8771510,
    "Station Name": "Galveston Pleasure Pier, TX",
    "First Year": 1957,
    "Last Year": 2011,
    "Year Range": 54,
    "% Complete": 91,
    "MSL Trends (mm/yr)": 6.62,
    "+/- 95% CI (mm/yr)": 0.69,
    "MSL Trend (ft/century)": 2.17,
    "+/- 95% CI (ft/century)": 0.23,
    "Latitude": 29.2853,
    "Longitude": -94.7894
  },
  {
    "Station ID": 8772440,
    "Station Name": "Freeport, TX",
    "First Year": 1954,
    "Last Year": 2008,
    "Year Range": 36,
    "% Complete": 100,
    "MSL Trends (mm/yr)": 4.43,
    "+/- 95% CI (mm/yr)": 1.05,
    "MSL Trend (ft/century)": 1.45,
    "+/- 95% CI (ft/century)": 0.34,
    "Latitude": 28.9483,
    "Longitude": -95.3083
  },
  {
    "Station ID": 8774770,
    "Station Name": "Rockport, TX",
    "First Year": 1937,
    "Last Year": 2015,
    "Year Range": 78,
    "% Complete": 68,
    "MSL Trends (mm/yr)": 5.33,
    "+/- 95% CI (mm/yr)": 0.47,
    "MSL Trend (ft/century)": 1.75,
    "+/- 95% CI (ft/century)": 0.15,
    "Latitude": 28.0217,
    "Longitude": -97.0467
  },
  {
    "Station ID": 8775870,
    "Station Name": "Corpus Christi, TX",
    "First Year": 1983,
    "Last Year": 2015,
    "Year Range": 32,
    "% Complete": 96,
    "MSL Trends (mm/yr)": 3.8,
    "+/- 95% CI (mm/yr)": 1.17,
    "MSL Trend (ft/century)": 1.25,
    "+/- 95% CI (ft/century)": 0.38,
    "Latitude": 27.58,
    "Longitude": -97.2167
  },
  {
    "Station ID": 8778490,
    "Station Name": "Port Mansfield",
    "First Year": 1963,
    "Last Year": 2006,
    "Year Range": 43,
    "% Complete": 94,
    "MSL Trends (mm/yr)": 1.93,
    "+/- 95% CI (mm/yr)": 0.97,
    "MSL Trend (ft/century)": 0.63,
    "+/- 95% CI (ft/century)": 0.32,
    "Latitude": 26.5546,
    "Longitude": -97.4221
  },
  {
    "Station ID": 8779750,
    "Station Name": "Padre Island, TX",
    "First Year": 1958,
    "Last Year": 2006,
    "Year Range": 48,
    "% Complete": 85,
    "MSL Trends (mm/yr)": 3.48,
    "+/- 95% CI (mm/yr)": 0.75,
    "MSL Trend (ft/century)": 1.14,
    "+/- 95% CI (ft/century)": 0.25,
    "Latitude": 26.0683,
    "Longitude": -97.1567
  },
  {
    "Station ID": 8779770,
    "Station Name": "Port Isabel, TX",
    "First Year": 1944,
    "Last Year": 2015,
    "Year Range": 71,
    "% Complete": 73,
    "MSL Trends (mm/yr)": 3.83,
    "+/- 95% CI (mm/yr)": 0.35,
    "MSL Trend (ft/century)": 1.26,
    "+/- 95% CI (ft/century)": 0.11,
    "Latitude": 26.06,
    "Longitude": -97.215
  },
  {
    "Station ID": 9410170,
    "Station Name": "San Diego, CA",
    "First Year": 1906,
    "Last Year": 2015,
    "Year Range": 109,
    "% Complete": 98,
    "MSL Trends (mm/yr)": 2.13,
    "+/- 95% CI (mm/yr)": 0.19,
    "MSL Trend (ft/century)": 0.7,
    "+/- 95% CI (ft/century)": 0.06,
    "Latitude": 32.7142,
    "Longitude": -117.1736
  },
  {
    "Station ID": 9410230,
    "Station Name": "La Jolla, CA",
    "First Year": 1924,
    "Last Year": 2015,
    "Year Range": 91,
    "% Complete": 95,
    "MSL Trends (mm/yr)": 2.19,
    "+/- 95% CI (mm/yr)": 0.27,
    "MSL Trend (ft/century)": 0.72,
    "+/- 95% CI (ft/century)": 0.09,
    "Latitude": 32.8667,
    "Longitude": -117.258
  },
  {
    "Station ID": 9410580,
    "Station Name": "Newport Beach, CA",
    "First Year": 1955,
    "Last Year": 1993,
    "Year Range": 38,
    "% Complete": 100,
    "MSL Trends (mm/yr)": 2.22,
    "+/- 95% CI (mm/yr)": 1.04,
    "MSL Trend (ft/century)": 0.73,
    "+/- 95% CI (ft/century)": 0.34,
    "Latitude": 33.6033,
    "Longitude": -117.883
  },
  {
    "Station ID": 9410660,
    "Station Name": "Los Angeles, CA",
    "First Year": 1923,
    "Last Year": 2015,
    "Year Range": 92,
    "% Complete": 99,
    "MSL Trends (mm/yr)": 0.95,
    "+/- 95% CI (mm/yr)": 0.24,
    "MSL Trend (ft/century)": 0.31,
    "+/- 95% CI (ft/century)": 0.08,
    "Latitude": 33.72,
    "Longitude": -118.272
  },
  {
    "Station ID": 9410840,
    "Station Name": "Santa Monica, CA",
    "First Year": 1933,
    "Last Year": 2015,
    "Year Range": 82,
    "% Complete": 86,
    "MSL Trends (mm/yr)": 1.52,
    "+/- 95% CI (mm/yr)": 0.35,
    "MSL Trend (ft/century)": 0.5,
    "+/- 95% CI (ft/century)": 0.11,
    "Latitude": 34.0083,
    "Longitude": -118.5
  },
  {
    "Station ID": 9411270,
    "Station Name": "Rincon Island, CA",
    "First Year": 1962,
    "Last Year": 1990,
    "Year Range": 28,
    "% Complete": 92,
    "MSL Trends (mm/yr)": 3.22,
    "+/- 95% CI (mm/yr)": 1.66,
    "MSL Trend (ft/century)": 1.06,
    "+/- 95% CI (ft/century)": 0.54,
    "Latitude": 34.3483,
    "Longitude": -119.443
  },
  {
    "Station ID": 9411340,
    "Station Name": "Santa Barbara, CA",
    "First Year": 1973,
    "Last Year": 2015,
    "Year Range": 42,
    "% Complete": 58,
    "MSL Trends (mm/yr)": 1.11,
    "+/- 95% CI (mm/yr)": 1.28,
    "MSL Trend (ft/century)": 0.36,
    "+/- 95% CI (ft/century)": 0.42,
    "Latitude": 34.4083,
    "Longitude": -119.685
  },
  {
    "Station ID": 9412110,
    "Station Name": "Port San Luis, CA",
    "First Year": 1945,
    "Last Year": 2015,
    "Year Range": 70,
    "% Complete": 94,
    "MSL Trends (mm/yr)": 0.84,
    "+/- 95% CI (mm/yr)": 0.4,
    "MSL Trend (ft/century)": 0.28,
    "+/- 95% CI (ft/century)": 0.13,
    "Latitude": 35.1767,
    "Longitude": -120.76
  },
  {
    "Station ID": 9413450,
    "Station Name": "Monterey, CA",
    "First Year": 1973,
    "Last Year": 2015,
    "Year Range": 42,
    "% Complete": 99,
    "MSL Trends (mm/yr)": 1.4,
    "+/- 95% CI (mm/yr)": 0.95,
    "MSL Trend (ft/century)": 0.46,
    "+/- 95% CI (ft/century)": 0.31,
    "Latitude": 36.605,
    "Longitude": -121.888
  },
  {
    "Station ID": 9414290,
    "Station Name": "San Francisco, CA",
    "First Year": 1897,
    "Last Year": 2015,
    "Year Range": 118,
    "% Complete": 99,
    "MSL Trends (mm/yr)": 1.94,
    "+/- 95% CI (mm/yr)": 0.19,
    "MSL Trend (ft/century)": 0.64,
    "+/- 95% CI (ft/century)": 0.06,
    "Latitude": 37.8067,
    "Longitude": -122.465
  },
  {
    "Station ID": 9414523,
    "Station Name": "Redwood City, CA",
    "First Year": 1974,
    "Last Year": 2015,
    "Year Range": 41,
    "% Complete": 45,
    "MSL Trends (mm/yr)": 1.96,
    "+/- 95% CI (mm/yr)": 1.83,
    "MSL Trend (ft/century)": 0.64,
    "+/- 95% CI (ft/century)": 0.6,
    "Latitude": 37.5067,
    "Longitude": -122.21
  },
  {
    "Station ID": 9414750,
    "Station Name": "Alameda, CA",
    "First Year": 1939,
    "Last Year": 2015,
    "Year Range": 76,
    "% Complete": 99,
    "MSL Trends (mm/yr)": 0.72,
    "+/- 95% CI (mm/yr)": 0.42,
    "MSL Trend (ft/century)": 0.24,
    "+/- 95% CI (ft/century)": 0.14,
    "Latitude": 37.7717,
    "Longitude": -122.2983
  },
  {
    "Station ID": 9415020,
    "Station Name": "Point Reyes, CA",
    "First Year": 1975,
    "Last Year": 2015,
    "Year Range": 40,
    "% Complete": 98,
    "MSL Trends (mm/yr)": 1.97,
    "+/- 95% CI (mm/yr)": 1.02,
    "MSL Trend (ft/century)": 0.65,
    "+/- 95% CI (ft/century)": 0.34,
    "Latitude": 37.9961,
    "Longitude": -122.9767
  },
  {
    "Station ID": 9415144,
    "Station Name": "Port Chicago, CA",
    "First Year": 1976,
    "Last Year": 2015,
    "Year Range": 39,
    "% Complete": 98,
    "MSL Trends (mm/yr)": 1.55,
    "+/- 95% CI (mm/yr)": 1.67,
    "MSL Trend (ft/century)": 0.51,
    "+/- 95% CI (ft/century)": 0.55,
    "Latitude": 38.056,
    "Longitude": -122.0395
  },
  {
    "Station ID": 9416841,
    "Station Name": "Arena Cove, CA",
    "First Year": 1978,
    "Last Year": 2015,
    "Year Range": 37,
    "% Complete": 79,
    "MSL Trends (mm/yr)": 0.42,
    "+/- 95% CI (mm/yr)": 1.16,
    "MSL Trend (ft/century)": 0.14,
    "+/- 95% CI (ft/century)": 0.38,
    "Latitude": 38.9133,
    "Longitude": -123.708
  },
  {
    "Station ID": 9418767,
    "Station Name": "North Spit, CA",
    "First Year": 1977,
    "Last Year": 2015,
    "Year Range": 38,
    "% Complete": 98,
    "MSL Trends (mm/yr)": 4.6,
    "+/- 95% CI (mm/yr)": 1.06,
    "MSL Trend (ft/century)": 1.51,
    "+/- 95% CI (ft/century)": 0.35,
    "Latitude": 40.7667,
    "Longitude": -124.217
  },
  {
    "Station ID": 9419750,
    "Station Name": "Crescent City, CA",
    "First Year": 1933,
    "Last Year": 2015,
    "Year Range": 82,
    "% Complete": 93,
    "MSL Trends (mm/yr)": -0.81,
    "+/- 95% CI (mm/yr)": 0.31,
    "MSL Trend (ft/century)": -0.26,
    "+/- 95% CI (ft/century)": 0.1,
    "Latitude": 41.745,
    "Longitude": -124.183
  },
  {
    "Station ID": 9431647,
    "Station Name": "Port Orford, OR",
    "First Year": 1977,
    "Last Year": 2015,
    "Year Range": 38,
    "% Complete": 82,
    "MSL Trends (mm/yr)": -0.08,
    "+/- 95% CI (mm/yr)": 1.32,
    "MSL Trend (ft/century)": -0.03,
    "+/- 95% CI (ft/century)": 0.43,
    "Latitude": 42.739,
    "Longitude": -124.4983
  },
  {
    "Station ID": 9432780,
    "Station Name": "Charleston, OR",
    "First Year": 1970,
    "Last Year": 2015,
    "Year Range": 45,
    "% Complete": 98,
    "MSL Trends (mm/yr)": 0.98,
    "+/- 95% CI (mm/yr)": 0.83,
    "MSL Trend (ft/century)": 0.32,
    "+/- 95% CI (ft/century)": 0.27,
    "Latitude": 43.345,
    "Longitude": -124.322
  },
  {
    "Station ID": 9435380,
    "Station Name": "South Beach, OR",
    "First Year": 1967,
    "Last Year": 2015,
    "Year Range": 48,
    "% Complete": 100,
    "MSL Trends (mm/yr)": 1.55,
    "+/- 95% CI (mm/yr)": 0.76,
    "MSL Trend (ft/century)": 0.51,
    "+/- 95% CI (ft/century)": 0.25,
    "Latitude": 44.625,
    "Longitude": -124.043
  },
  {
    "Station ID": 9437540,
    "Station Name": "Garibaldi, OR",
    "First Year": 1970,
    "Last Year": 2015,
    "Year Range": 45,
    "% Complete": 45,
    "MSL Trends (mm/yr)": 2.46,
    "+/- 95% CI (mm/yr)": 0.85,
    "MSL Trend (ft/century)": 0.81,
    "+/- 95% CI (ft/century)": 0.28,
    "Latitude": 45.5545,
    "Longitude": -123.9189
  },
  {
    "Station ID": 9439011,
    "Station Name": "Hammond, OR",
    "First Year": 1983,
    "Last Year": 2014,
    "Year Range": 31,
    "% Complete": 28,
    "MSL Trends (mm/yr)": -1.22,
    "+/- 95% CI (mm/yr)": 1.81,
    "MSL Trend (ft/century)": -0.4,
    "+/- 95% CI (ft/century)": 0.59,
    "Latitude": 46.2017,
    "Longitude": -123.945
  },
  {
    "Station ID": 9439040,
    "Station Name": "Astoria, OR",
    "First Year": 1925,
    "Last Year": 2015,
    "Year Range": 90,
    "% Complete": 96,
    "MSL Trends (mm/yr)": -0.23,
    "+/- 95% CI (mm/yr)": 0.34,
    "MSL Trend (ft/century)": -0.08,
    "+/- 95% CI (ft/century)": 0.11,
    "Latitude": 46.2073,
    "Longitude": -123.7683
  },
  {
    "Station ID": 9440910,
    "Station Name": "Toke Point, WA",
    "First Year": 1973,
    "Last Year": 2015,
    "Year Range": 42,
    "% Complete": 92,
    "MSL Trends (mm/yr)": 0.4,
    "+/- 95% CI (mm/yr)": 0.98,
    "MSL Trend (ft/century)": 0.13,
    "+/- 95% CI (ft/century)": 0.32,
    "Latitude": 46.7075,
    "Longitude": -123.9669
  },
  {
    "Station ID": 9443090,
    "Station Name": "Neah Bay, WA",
    "First Year": 1934,
    "Last Year": 2015,
    "Year Range": 81,
    "% Complete": 97,
    "MSL Trends (mm/yr)": -1.73,
    "+/- 95% CI (mm/yr)": 0.31,
    "MSL Trend (ft/century)": -0.57,
    "+/- 95% CI (ft/century)": 0.1,
    "Latitude": 48.3667,
    "Longitude": -124.6117
  },
  {
    "Station ID": 9444090,
    "Station Name": "Port Angeles, WA",
    "First Year": 1975,
    "Last Year": 2015,
    "Year Range": 40,
    "% Complete": 99,
    "MSL Trends (mm/yr)": 0.14,
    "+/- 95% CI (mm/yr)": 0.96,
    "MSL Trend (ft/century)": 0.05,
    "+/- 95% CI (ft/century)": 0.32,
    "Latitude": 48.125,
    "Longitude": -123.44
  },
  {
    "Station ID": 9444900,
    "Station Name": "Port Townsend, WA",
    "First Year": 1972,
    "Last Year": 2015,
    "Year Range": 43,
    "% Complete": 97,
    "MSL Trends (mm/yr)": 1.82,
    "+/- 95% CI (mm/yr)": 0.8,
    "MSL Trend (ft/century)": 0.6,
    "+/- 95% CI (ft/century)": 0.26,
    "Latitude": 48.1117,
    "Longitude": -122.758
  },
  {
    "Station ID": 9447130,
    "Station Name": "Seattle, WA",
    "First Year": 1899,
    "Last Year": 2015,
    "Year Range": 116,
    "% Complete": 99,
    "MSL Trends (mm/yr)": 2.01,
    "+/- 95% CI (mm/yr)": 0.15,
    "MSL Trend (ft/century)": 0.66,
    "+/- 95% CI (ft/century)": 0.05,
    "Latitude": 47.6026,
    "Longitude": -122.3393
  },
  {
    "Station ID": 9449424,
    "Station Name": "Cherry Point, WA",
    "First Year": 1973,
    "Last Year": 2015,
    "Year Range": 42,
    "% Complete": 97,
    "MSL Trends (mm/yr)": 0.25,
    "+/- 95% CI (mm/yr)": 0.82,
    "MSL Trend (ft/century)": 0.08,
    "+/- 95% CI (ft/century)": 0.27,
    "Latitude": 48.8633,
    "Longitude": -122.758
  },
  {
    "Station ID": 9449880,
    "Station Name": "Friday Harbor, WA",
    "First Year": 1934,
    "Last Year": 2015,
    "Year Range": 81,
    "% Complete": 82,
    "MSL Trends (mm/yr)": 1.12,
    "+/- 95% CI (mm/yr)": 0.28,
    "MSL Trend (ft/century)": 0.37,
    "+/- 95% CI (ft/century)": 0.09,
    "Latitude": 48.5467,
    "Longitude": -123.01
  },
  {
    "Station ID": 9450460,
    "Station Name": "Ketchikan, AK",
    "First Year": 1919,
    "Last Year": 2015,
    "Year Range": 96,
    "% Complete": 92,
    "MSL Trends (mm/yr)": -0.31,
    "+/- 95% CI (mm/yr)": 0.23,
    "MSL Trend (ft/century)": -0.1,
    "+/- 95% CI (ft/century)": 0.08,
    "Latitude": 55.3318,
    "Longitude": -131.6262
  },
  {
    "Station ID": 9451600,
    "Station Name": "Sitka, AK",
    "First Year": 1924,
    "Last Year": 2015,
    "Year Range": 91,
    "% Complete": 81,
    "MSL Trends (mm/yr)": -2.28,
    "+/- 95% CI (mm/yr)": 0.28,
    "MSL Trend (ft/century)": -0.75,
    "+/- 95% CI (ft/century)": 0.09,
    "Latitude": 57.0517,
    "Longitude": -135.342
  },
  {
    "Station ID": 9452210,
    "Station Name": "Juneau, AK",
    "First Year": 1936,
    "Last Year": 2015,
    "Year Range": 79,
    "% Complete": 92,
    "MSL Trends (mm/yr)": -13.14,
    "+/- 95% CI (mm/yr)": 0.35,
    "MSL Trend (ft/century)": -4.31,
    "+/- 95% CI (ft/century)": 0.12,
    "Latitude": 58.2983,
    "Longitude": -134.412
  },
  {
    "Station ID": 9452400,
    "Station Name": "Skagway, AK",
    "First Year": 1944,
    "Last Year": 2015,
    "Year Range": 71,
    "% Complete": 80,
    "MSL Trends (mm/yr)": -17.59,
    "+/- 95% CI (mm/yr)": 0.52,
    "MSL Trend (ft/century)": -5.77,
    "+/- 95% CI (ft/century)": 0.17,
    "Latitude": 59.45,
    "Longitude": -135.327
  },
  {
    "Station ID": 9453220,
    "Station Name": "Yakutat, AK",
    "First Year": 1988,
    "Last Year": 2015,
    "Year Range": 27,
    "% Complete": 95,
    "MSL Trends (mm/yr)": -14.1,
    "+/- 95% CI (mm/yr)": 1.5,
    "MSL Trend (ft/century)": -4.62,
    "+/- 95% CI (ft/century)": 0.49,
    "Latitude": 59.5485,
    "Longitude": -139.7334
  },
  {
    "Station ID": 9454050,
    "Station Name": "Cordova, AK",
    "First Year": 1988,
    "Last Year": 2015,
    "Year Range": 27,
    "% Complete": 94,
    "MSL Trends (mm/yr)": -0.04,
    "+/- 95% CI (mm/yr)": 1.36,
    "MSL Trend (ft/century)": -0.01,
    "+/- 95% CI (ft/century)": 0.45,
    "Latitude": 60.5583,
    "Longitude": -145.753
  },
  {
    "Station ID": 9454240,
    "Station Name": "Valdez, AK",
    "First Year": 1988,
    "Last Year": 2015,
    "Year Range": 27,
    "% Complete": 95,
    "MSL Trends (mm/yr)": -8.6,
    "+/- 95% CI (mm/yr)": 1.5,
    "MSL Trend (ft/century)": -2.82,
    "+/- 95% CI (ft/century)": 0.49,
    "Latitude": 61.125,
    "Longitude": -146.362
  },
  {
    "Station ID": 9455090,
    "Station Name": "Seward, AK",
    "First Year": 1964,
    "Last Year": 2015,
    "Year Range": 51,
    "% Complete": 86,
    "MSL Trends (mm/yr)": -2.62,
    "+/- 95% CI (mm/yr)": 0.69,
    "MSL Trend (ft/century)": -0.86,
    "+/- 95% CI (ft/century)": 0.23,
    "Latitude": 60.12,
    "Longitude": -149.4267
  },
  {
    "Station ID": 9455500,
    "Station Name": "Seldovia, AK",
    "First Year": 1964,
    "Last Year": 2015,
    "Year Range": 51,
    "% Complete": 96,
    "MSL Trends (mm/yr)": -10.08,
    "+/- 95% CI (mm/yr)": 0.8,
    "MSL Trend (ft/century)": -3.31,
    "+/- 95% CI (ft/century)": 0.26,
    "Latitude": 59.4405,
    "Longitude": -151.7199
  },
  {
    "Station ID": 9455760,
    "Station Name": "Nikiski, AK",
    "First Year": 1973,
    "Last Year": 2015,
    "Year Range": 42,
    "% Complete": 52,
    "MSL Trends (mm/yr)": -10.42,
    "+/- 95% CI (mm/yr)": 1.05,
    "MSL Trend (ft/century)": -3.42,
    "+/- 95% CI (ft/century)": 0.34,
    "Latitude": 60.6833,
    "Longitude": -151.398
  },
  {
    "Station ID": 9455920,
    "Station Name": "Anchorage, AK",
    "First Year": 1972,
    "Last Year": 2015,
    "Year Range": 43,
    "% Complete": 86,
    "MSL Trends (mm/yr)": -0.54,
    "+/- 95% CI (mm/yr)": 1.07,
    "MSL Trend (ft/century)": -0.18,
    "+/- 95% CI (ft/century)": 0.35,
    "Latitude": 61.2383,
    "Longitude": -149.89
  },
  {
    "Station ID": 9457292,
    "Station Name": "Kodiak Island, AK",
    "First Year": 1975,
    "Last Year": 2015,
    "Year Range": 40,
    "% Complete": 53,
    "MSL Trends (mm/yr)": -10.41,
    "+/- 95% CI (mm/yr)": 0.89,
    "MSL Trend (ft/century)": -3.42,
    "+/- 95% CI (ft/century)": 0.29,
    "Latitude": 57.7317,
    "Longitude": -152.512
  },
  {
    "Station ID": 9459450,
    "Station Name": "Sand Point, AK",
    "First Year": 1972,
    "Last Year": 2015,
    "Year Range": 43,
    "% Complete": 96,
    "MSL Trends (mm/yr)": 0.92,
    "+/- 95% CI (mm/yr)": 0.92,
    "MSL Trend (ft/century)": 0.3,
    "+/- 95% CI (ft/century)": 0.3,
    "Latitude": 55.3367,
    "Longitude": -160.502
  },
  {
    "Station ID": 9461380,
    "Station Name": "Adak Island, AK",
    "First Year": 1957,
    "Last Year": 2015,
    "Year Range": 58,
    "% Complete": 89,
    "MSL Trends (mm/yr)": -2.83,
    "+/- 95% CI (mm/yr)": 0.42,
    "MSL Trend (ft/century)": -0.93,
    "+/- 95% CI (ft/century)": 0.14,
    "Latitude": 51.8633,
    "Longitude": -176.632
  },
  {
    "Station ID": 9462620,
    "Station Name": "Unalaska, AK",
    "First Year": 1957,
    "Last Year": 2015,
    "Year Range": 58,
    "% Complete": 64,
    "MSL Trends (mm/yr)": -5.08,
    "+/- 95% CI (mm/yr)": 0.53,
    "MSL Trend (ft/century)": -1.67,
    "+/- 95% CI (ft/century)": 0.17,
    "Latitude": 53.88,
    "Longitude": -166.537
  },
  {
    "Station ID": 9463502,
    "Station Name": "Port Moller, AK",
    "First Year": 1984,
    "Last Year": 2015,
    "Year Range": 31,
    "% Complete": 41,
    "MSL Trends (mm/yr)": 2.64,
    "+/- 95% CI (mm/yr)": 1.79,
    "MSL Trend (ft/century)": 0.86,
    "+/- 95% CI (ft/century)": 0.59,
    "Latitude": 55.99,
    "Longitude": -160.562
  },
  {
    "Station ID": 9497645,
    "Station Name": "Prudhoe Bay, AK",
    "First Year": 1990,
    "Last Year": 2014,
    "Year Range": 24,
    "% Complete": 92,
    "MSL Trends (mm/yr)": 1.2,
    "+/- 95% CI (mm/yr)": 1.99,
    "MSL Trend (ft/century)": 0.39,
    "+/- 95% CI (ft/century)": 0.65,
    "Latitude": 70.4,
    "Longitude": -148.527
  },
  {
    "Station ID": 9731158,
    "Station Name": "Guantanamo Bay, Cuba",
    "First Year": 1937,
    "Last Year": 1971,
    "Year Range": 34,
    "% Complete": 57,
    "MSL Trends (mm/yr)": 1.64,
    "+/- 95% CI (mm/yr)": 0.8,
    "MSL Trend (ft/century)": 0.54,
    "+/- 95% CI (ft/century)": 0.26,
    "Latitude": 19.9067,
    "Longitude": -75.1467
  },
  {
    "Station ID": 9751401,
    "Station Name": "Lime Tree Bay, VI",
    "First Year": 1977,
    "Last Year": 2015,
    "Year Range": 38,
    "% Complete": 88,
    "MSL Trends (mm/yr)": 2.49,
    "+/- 95% CI (mm/yr)": 0.81,
    "MSL Trend (ft/century)": 0.82,
    "+/- 95% CI (ft/century)": 0.26,
    "Latitude": 17.6947,
    "Longitude": -64.7538
  },
  {
    "Station ID": 9751639,
    "Station Name": "Charlotte Amalie, VI",
    "First Year": 1975,
    "Last Year": 2015,
    "Year Range": 40,
    "% Complete": 90,
    "MSL Trends (mm/yr)": 1.97,
    "+/- 95% CI (mm/yr)": 0.71,
    "MSL Trend (ft/century)": 0.65,
    "+/- 95% CI (ft/century)": 0.23,
    "Latitude": 18.3358,
    "Longitude": -64.92
  },
  {
    "Station ID": 9755371,
    "Station Name": "San Juan, PR",
    "First Year": 1962,
    "Last Year": 2015,
    "Year Range": 53,
    "% Complete": 91,
    "MSL Trends (mm/yr)": 2.02,
    "+/- 95% CI (mm/yr)": 0.44,
    "MSL Trend (ft/century)": 0.66,
    "+/- 95% CI (ft/century)": 0.14,
    "Latitude": 18.4589,
    "Longitude": -66.1164
  },
  {
    "Station ID": 9759110,
    "Station Name": "Magueyes Island, PR",
    "First Year": 1955,
    "Last Year": 2015,
    "Year Range": 60,
    "% Complete": 96,
    "MSL Trends (mm/yr)": 1.7,
    "+/- 95% CI (mm/yr)": 0.33,
    "MSL Trend (ft/century)": 0.56,
    "+/- 95% CI (ft/century)": 0.11,
    "Latitude": 17.9701,
    "Longitude": -67.0464
  }
]